{"type":"FeatureCollection","features":[{"type":"Feature","properties":{"District":"SWF","Name":"Aquilla Lake","NIDID":"TX08004","Loc_ID":143048},"geometry":{"type":"Point","coordinates":[-97.2025,31.899722]}},{"type":"Feature","properties":{"District":"SWF","Name":"B. A. Steinhagen Lake","NIDID":"TX00015","Loc_ID":227048},"geometry":{"type":"Point","coordinates":[-94.18,30.7952778]}},{"type":"Feature","properties":{"District":"SWF","Name":"Bardwell Lake","NIDID":"TX00001","Loc_ID":404048},"geometry":{"type":"Point","coordinates":[-96.64,32.25]}},{"type":"Feature","properties":{"District":"SWF","Name":"Belton Lake","NIDID":"TX00002","Loc_ID":170048},"geometry":{"type":"Point","coordinates":[-97.4744444,31.1061111]}},{"type":"Feature","properties":{"District":"SWF","Name":"Benbrook Lake","NIDID":"TX00003","Loc_ID":408048},"geometry":{"type":"Point","coordinates":[-97.4483333,32.6505556]}},{"type":"Feature","properties":{"District":"SWF","Name":"Canyon Lake","NIDID":"TX00004","Loc_ID":219048},"geometry":{"type":"Point","coordinates":[-98.1986111,29.8686111]}},{"type":"Feature","properties":{"District":"SWF","Name":"Granger Lake","NIDID":"TX08005","Loc_ID":179048},"geometry":{"type":"Point","coordinates":[-97.2786111,30.6941667]}},{"type":"Feature","properties":{"District":"SWF","Name":"Grapevine Lake","NIDID":"TX00005","Loc_ID":416048},"geometry":{"type":"Point","coordinates":[-97.056111,32.9725]}},{"type":"Feature","properties":{"District":"SWF","Name":"Hords Creek Lake","NIDID":"TX00006","Loc_ID":199048},"geometry":{"type":"Point","coordinates":[-99.560556,31.832778]}},{"type":"Feature","properties":{"District":"SWF","Name":"Jim Chapman Lake","NIDID":"TX08012","Loc_ID":235048},"geometry":{"type":"Point","coordinates":[-95.6361,33.3356]}},{"type":"Feature","properties":{"District":"SWF","Name":"Joe Pool Lake","NIDID":"TX08007","Loc_ID":420048},"geometry":{"type":"Point","coordinates":[-96.9933,32.645]}},{"type":"Feature","properties":{"District":"SWF","Name":"Lake Georgetown","NIDID":"TX08006","Loc_ID":160048},"geometry":{"type":"Point","coordinates":[-97.727222,30.6675]}},{"type":"Feature","properties":{"District":"SWF","Name":"Lake O' The Pines","NIDID":"TX00020","Loc_ID":231048},"geometry":{"type":"Point","coordinates":[-94.4991667,32.775]}},{"type":"Feature","properties":{"District":"SWF","Name":"Lavon Lake","NIDID":"TX00007","Loc_ID":428048},"geometry":{"type":"Point","coordinates":[-96.4653228,33.0323618]}},{"type":"Feature","properties":{"District":"SWF","Name":"Lewisville Lake","NIDID":"TX00008","Loc_ID":424048},"geometry":{"type":"Point","coordinates":[-96.964167,33.069167]}},{"type":"Feature","properties":{"District":"SWF","Name":"Navarro Mills Lake","NIDID":"TX00009","Loc_ID":412048},"geometry":{"type":"Point","coordinates":[-96.7,31.95]}},{"type":"Feature","properties":{"District":"SWF","Name":"O.C. Fisher Lake","NIDID":"TX00012","Loc_ID":207048},"geometry":{"type":"Point","coordinates":[-100.481389,31.484444]}},{"type":"Feature","properties":{"District":"SWF","Name":"Proctor Lake","NIDID":"TX00010","Loc_ID":183048},"geometry":{"type":"Point","coordinates":[-98.4767,31.9717]}},{"type":"Feature","properties":{"District":"SWF","Name":"Ray Roberts Lake","NIDID":"TX08008","Loc_ID":432048},"geometry":{"type":"Point","coordinates":[-97.0367,33.3567]}},{"type":"Feature","properties":{"District":"SWF","Name":"Sam Rayburn Reservoir","NIDID":"TX00011","Loc_ID":223048},"geometry":{"type":"Point","coordinates":[-94.1058333,31.0605556]}},{"type":"Feature","properties":{"District":"SWF","Name":"Somerville Lake","NIDID":"TX00013","Loc_ID":187048},"geometry":{"type":"Point","coordinates":[-96.525556,30.322222]}},{"type":"Feature","properties":{"District":"SWF","Name":"Stillhouse Hollow Lake","NIDID":"TX00014","Loc_ID":191048},"geometry":{"type":"Point","coordinates":[-97.5325,31.022222]}},{"type":"Feature","properties":{"District":"SWF","Name":"Waco Lake","NIDID":"TX00016","Loc_ID":142048},"geometry":{"type":"Point","coordinates":[-97.202,31.584]}},{"type":"Feature","properties":{"District":"SWF","Name":"Whitney Lake","NIDID":"TX00017","Loc_ID":195048},"geometry":{"type":"Point","coordinates":[-97.3716667,31.8652778]}},{"type":"Feature","properties":{"District":"SWF","Name":"Wright Patman Lake","NIDID":"TX00021","Loc_ID":239048},"geometry":{"type":"Point","coordinates":[-94.16,33.305]}},{"type":"Feature","properties":{"District":"SWG","Name":"Addicks Reservoir","NIDID":"TX00018","Loc_ID":130049},"geometry":{"type":"Point","coordinates":[-95.6233333,29.7911111]}},{"type":"Feature","properties":{"District":"SWG","Name":"Barker Res Nr Addicks, Tx","NIDID":"TX00019","Loc_ID":29049},"geometry":{"type":"Point","coordinates":[-95.6471694,29.76995]}},{"type":"Feature","properties":{"District":"SWT","Name":"Pat Mayse Lake","NIDID":"TX04359","Loc_ID":1812051},"geometry":{"type":"Point","coordinates":[-95.5438889,33.8527778]}}]}